<?xml version="1.0" encoding="UTF-8" standalone="no" ?>
<gpx xmlns="http://www.topografix.com/GPX/1/1" creator="http://nakarte.me" xmlns:xsi="http://www.w3.org/2001/XMLSchema-instance" xsi:schemaLocation="http://www.topografix.com/GPX/1/1 http://www.topografix.com/GPX/1/1/gpx.xsd" version="1.1">
	<metadata>
		<time>2022-08-17T19:51:05.358Z</time>
	</metadata>
	<wpt lat="43.340316" lon="42.284320">
		<name>НОРМСТ</name>
	</wpt>
	<wpt lat="43.343899" lon="42.290950">
		<name>НОРМСТ</name>
	</wpt>
	<wpt lat="43.346818" lon="42.297602">
		<name>ТЕШТУР</name>
	</wpt>
	<wpt lat="43.346646" lon="42.309017">
		<name>ОБЕД</name>
	</wpt>
	<wpt lat="43.347526" lon="42.310069">
		<name>НОРМСТ</name>
	</wpt>
	<wpt lat="43.356817" lon="42.335947">
		<name>РУЧ</name>
	</wpt>
	<wpt lat="43.356903" lon="42.335131">
		<name>НОЧЕВКА</name>
	</wpt>
</gpx>