<?xml version="1.0" encoding="UTF-8" standalone="no" ?><gpx xmlns="http://www.topografix.com/GPX/1/1" xmlns:gpxx="http://www.garmin.com/xmlschemas/GpxExtensions/v3" xmlns:wptx1="http://www.garmin.com/xmlschemas/WaypointExtension/v1" xmlns:gpxtpx="http://www.garmin.com/xmlschemas/TrackPointExtension/v1" creator="eTrex 20x" version="1.1" xmlns:xsi="http://www.w3.org/2001/XMLSchema-instance" xsi:schemaLocation="http://www.topografix.com/GPX/1/1 http://www.topografix.com/GPX/1/1/gpx.xsd http://www.garmin.com/xmlschemas/GpxExtensions/v3 http://www8.garmin.com/xmlschemas/GpxExtensionsv3.xsd http://www.garmin.com/xmlschemas/TrackStatsExtension/v1 http://www8.garmin.com/xmlschemas/TrackStatsExtension.xsd http://www.garmin.com/xmlschemas/WaypointExtension/v1 http://www8.garmin.com/xmlschemas/WaypointExtensionv1.xsd http://www.garmin.com/xmlschemas/TrackPointExtension/v1 http://www.garmin.com/xmlschemas/TrackPointExtensionv1.xsd"><metadata><link href="http://www.garmin.com"><text>Garmin International</text></link><time>2022-07-10T06:19:23Z</time></metadata><wpt lat="43.398102" lon="42.594359"><ele>3026.285889</ele><time>2022-07-10T06:19:23Z</time><name>НОРМСТ</name><sym>Flag, Blue</sym></wpt><wpt lat="43.396750" lon="42.585713"><ele>3164.779297</ele><time>2022-07-10T06:56:12Z</time><name>ИСЛАМЧАТТУР</name><sym>Flag, Blue</sym></wpt><wpt lat="43.388508" lon="42.567295"><ele>3168.726318</ele><time>2022-07-10T11:09:40Z</time><name>НОЧ</name><sym>Flag, Blue</sym></wpt><wpt lat="43.383009" lon="42.560204"><ele>3184.828613</ele><time>2022-07-10T11:42:03Z</time><name>ВОЗМСТБЕЗВОДЫ</name><sym>Flag, Blue</sym></wpt><wpt lat="43.379022" lon="42.556197"><ele>3182.453857</ele><time>2022-07-10T11:53:02Z</time><name>НОРМСТ</name><sym>Flag, Blue</sym></wpt><wpt lat="43.384416" lon="42.562136"><ele>3175.433594</ele><time>2022-07-10T14:08:29Z</time><name>ГОДНСТРУЧЕЙ</name><sym>Flag, Blue</sym></wpt></gpx>