<?xml version="1.0" encoding="UTF-8" standalone="no" ?><gpx xmlns="http://www.topografix.com/GPX/1/1" xmlns:gpxx="http://www.garmin.com/xmlschemas/GpxExtensions/v3" xmlns:wptx1="http://www.garmin.com/xmlschemas/WaypointExtension/v1" xmlns:gpxtpx="http://www.garmin.com/xmlschemas/TrackPointExtension/v1" creator="eTrex 20x" version="1.1" xmlns:xsi="http://www.w3.org/2001/XMLSchema-instance" xsi:schemaLocation="http://www.topografix.com/GPX/1/1 http://www.topografix.com/GPX/1/1/gpx.xsd http://www.garmin.com/xmlschemas/GpxExtensions/v3 http://www8.garmin.com/xmlschemas/GpxExtensionsv3.xsd http://www.garmin.com/xmlschemas/TrackStatsExtension/v1 http://www8.garmin.com/xmlschemas/TrackStatsExtension.xsd http://www.garmin.com/xmlschemas/WaypointExtension/v1 http://www8.garmin.com/xmlschemas/WaypointExtensionv1.xsd http://www.garmin.com/xmlschemas/TrackPointExtension/v1 http://www.garmin.com/xmlschemas/TrackPointExtensionv1.xsd"><metadata><link href="http://www.garmin.com"><text>Garmin International</text></link><time>2022-07-05T05:12:10Z</time></metadata><wpt lat="43.340311" lon="42.284313"><ele>2815.254639</ele><time>2022-07-05T05:12:10Z</time><name>006</name><sym>Flag, Blue</sym></wpt><wpt lat="43.343889" lon="42.290958"><ele>3106.880127</ele><time>2022-07-05T06:31:55Z</time><name>007</name><sym>Flag, Blue</sym></wpt><wpt lat="43.346828" lon="42.297595"><ele>3422.063477</ele><time>2022-07-05T08:09:44Z</time><name>ТЕШТУР</name><sym>Flag, Blue</sym></wpt><wpt lat="43.346655" lon="42.309028"><ele>3126.222656</ele><time>2022-07-05T09:30:40Z</time><name>ОБЕД9</name><sym>Flag, Blue</sym></wpt><wpt lat="43.347524" lon="42.310066"><ele>3116.856445</ele><time>2022-07-05T10:01:31Z</time><name>НОРМСТ</name><sym>Flag, Blue</sym></wpt><wpt lat="43.356809" lon="42.335941"><ele>2618.945068</ele><time>2022-07-05T12:09:53Z</time><name>РУЧ</name><sym>Flag, Blue</sym></wpt><wpt lat="43.356906" lon="42.335138"><ele>2608.402588</ele><time>2022-07-05T12:12:07Z</time><name>ПЛОЩ</name><sym>Flag, Blue</sym></wpt><wpt lat="43.357669" lon="42.330688"><ele>2570.969482</ele><time>2022-07-05T12:17:33Z</time><name>СОВЕЩ</name><sym>Flag, Blue</sym></wpt><wpt lat="43.356931" lon="42.335177"><ele>2618.737305</ele><time>2022-07-05T12:24:06Z</time><name>НОЧ</name><sym>Flag, Blue</sym></wpt></gpx>